     2.11           OBSERVATION DATA    G (GPS)             RINEX VERSION / TYPE
teqc  2019Feb25     NGS Web             20230807 17:51:10UTCPGM / RUN BY / DATE
Linux 2.4.21-27.ELsmp|Opteron|gcc|Linux 64|=+               COMMENT
teqc  2019Feb25     NOAA/NOS/NGS/CORS   20230805 09:41:25UTCCOMMENT
teqc  2020Oct7      UNAVCO Archive Ops  20230805 01:03:58UTCCOMMENT
BIT 2 OF LLI FLAGS DATA COLLECTED UNDER A/S CONDITION       COMMENT
RINEX file created by UNAVCO GPS Archive.                   COMMENT
For more information contact archive-gps@unavco.org         COMMENT
Monument ID: 18011                                          COMMENT
UNAVCO 4-char name:   SEDR                                  COMMENT
4-char name from Log or data file: SEDR                     COMMENT
Monument location: 48.521558 -122.223848 29.8571            COMMENT
Visit ID: 123940                                            COMMENT
doi:10.7283/T5P84901                                        COMMENT
End of DB comments                                          COMMENT
input file: sedr202308040000a.tgd                           COMMENT
 SNR is mapped to RINEX snr flag value [0-9]                COMMENT
  L1 & L2: min(max(int(snr_dBHz/6), 0), 9)                  COMMENT
teqc.e edited: all SBAS satellites excluded                 COMMENT
teqc.e edited: all QZSS satellites excluded                 COMMENT
SEDR                                                        MARKER NAME
Qamar, Anthony      University of Washington                OBSERVER / AGENCY
4518249780          TRIMBLE NETRS       1.3-2               REC # / TYPE / VERS
0220061148          TRM29659.00     UNAV                    ANT # / TYPE
 -2256868.8670 -3580543.4240  4755508.0740                  APPROX POSITION XYZ
        0.0792        0.0000        0.0000                  ANTENNA: DELTA H/E/N
     1     1                                                WAVELENGTH FACT L1/2
     7    L1    L2    C1    P2    P1    S1    S2            # / TYPES OF OBSERV
    15.0000                                                 INTERVAL
teqc.w windowed: start @ 2023 Aug  4 15:00:00.000           COMMENT
teqc.w windowed:  end  @ 2023 Aug  4 23:00:00.000           COMMENT
teqc.w edited: all GLONASS satellites excluded              COMMENT
teqc.w edited: all SBAS satellites excluded                 COMMENT
teqc.w edited: all Galileo satellites excluded              COMMENT
teqc.w edited: all Beidou satellites excluded               COMMENT
teqc.w edited: all QZSS satellites excluded                 COMMENT
  2023     8     4    15     0    0.0000000     GPS         TIME OF FIRST OBS
    18                                                      LEAP SECONDS
                                                            END OF HEADER
 23  8  4 15  0  0.0000000  0  9G12G25G05G20G11G31G29G28G18
 -15624756.745 7 -11532717.63246  21902658.133    21902649.004
        46.800          37.800
 -24316207.898 8 -18901408.99247  20327877.461    20327870.676
        49.200          42.500
 -16610523.172 7 -12036883.97246  22032605.578    22032597.914
        45.600          36.100
 -20836398.117 8 -15042824.62046  21247758.102    21247748.504
        48.700          38.800
 -22300855.728 8 -17105477.48346  21442949.219    21442940.324
        48.500          38.600
   -603440.920 6  -4066240.56745  24213323.750    24213314.914
        38.700          34.900
 -14073252.981 7 -10715945.74246  21447917.500    21447908.898
        47.700          40.400
  -3638772.929 6  -2898382.26444  23525640.453    23525631.910
        39.200          26.200
   -592792.854 5                  25340319.008
        35.300
 23  8  4 15  0 15.0000000  0  9G12G25G05G20G11G31G29G28G18
 -15578517.290 7 -11496686.94646  21911456.641    21911448.098
        45.600          37.300
 -24303951.735 8 -18891858.75647  20330209.594    20330202.633
        50.000          43.000
 -16652703.324 7 -12069751.62346  22024578.977    22024570.961
        45.900          36.200
 -20845163.782 8 -15049655.00746  21246090.023    21246081.012
        49.300          39.100
 -22267973.370 7 -17079854.89546  21449206.227    21449198.152
        47.300          38.400
   -614496.928 6  -4074855.60346  24211221.414    24211211.758
        40.400          36.300
 -14104018.227 8 -10739918.65946  21442063.188    21442054.176
        48.100          40.900
  -3625064.212 6  -2887700.18944  23528249.234    23528241.160
        39.900          26.400
   -645808.694 6                  25330231.672
        37.400
 23  8  4 15  0 30.0000000  0  9G12G25G05G20G11G31G29G28G18
 -15532187.144 7 -11460585.59546  21920273.289    21920264.688
        46.300          37.900
 -24291546.227 8 -18882192.14147  20332569.914    20332563.305
        49.900          42.400
 -16694778.168 7 -12102537.21946  22016572.883    22016564.926
        46.300          36.800
 -20853782.954 8 -15056371.26946  21244449.813    21244440.918
        48.900          39.700
 -22235004.063 7 -17054164.55246  21455479.961    21455472.180
        47.200          38.200
   -625409.435 6  -4083358.85246  24209142.250    24209134.703
        38.900          36.800
 -14134718.841 8 -10763841.23146  21436221.352    21436212.105
        48.000          41.000
  -3611219.659 6  -2876912.25944  23530882.641    23530875.270
        38.800          26.500
   -698805.358 6                  25320145.641
        36.600
 23  8  4 15  0 45.0000000  0  9G12G25G05G20G11G31G29G28G18
 -15485766.394 7 -11424413.62946  21929106.813    21929097.859
        46.900          38.000
 -24278991.320 8 -18872409.11847  20334959.453    20334952.199
        49.300          42.600
 -16736747.068 7 -12135240.25446  22008586.063    22008578.691
        46.600          36.800
 -20862255.230 8 -15062973.05546  21242837.445    21242828.609
        48.200          39.100
 -22201947.968 7 -17028406.58546  21461770.063    21461762.516
        47.900          38.800
   -636178.297 6  -4091750.20046  24207092.758    24207085.094
        39.200          37.800
 -14165354.656 7 -10787713.30046  21430391.125    21430382.641
        47.300          41.500
  -3597239.361 6  -2866018.56344  23533544.094    23533535.961
        40.000          26.400
   -751782.607 5                  25310063.625
        35.100
 23  8  4 15  1  0.0000000  0  9G12G25G05G20G11G31G29G28G18
 -15439255.413 7 -11388171.36346  21937957.477    21937949.285
        47.000          37.600
 -24266287.244 8 -18862509.85447  20337376.938    20337370.094
        49.400          42.900
 -16778610.084 7 -12167860.79446  22000620.414    22000611.988
        46.400          36.900
 -20870580.876 8 -15069460.57846  21241253.539    21241244.352
        48.900          38.900
 -22168805.521 7 -17002581.32346  21468077.164    21468069.148
        47.100          38.700
   -646803.559 6  -4100029.61746  24205072.852    24205063.547
        40.800          38.000
 -14195925.634 7 -10811534.84446  21424573.539    21424565.172
        47.300          40.500
  -3583123.625 6  -2855019.31244  23536230.000    23536221.809
        39.400          26.400
   -804740.401 5                  25299984.984
        34.600
 23  8  4 15  1 15.0000000  0  9G12G25G05G20G11G31G29G28G18
 -15392655.900 7 -11351860.11346  21946825.336    21946817.027
        46.200          37.900
 -24253435.393 8 -18852495.44847  20339822.523    20339815.973
        49.200          42.700
 -16820368.037 7 -12200399.47146  21992674.023    21992666.008
        46.200          36.600
 -20878761.072 8 -15075834.76146  21239697.250    21239687.535
        48.900          39.200
 -22135578.276 8 -16976689.97946  21474400.156    21474392.023
        48.200          38.600
   -657286.535 6  -4108198.17746  24203077.367    24203068.590
        40.400          38.000
 -14226432.916 7 -10835306.76246  21418768.531    21418759.871
        47.900          40.800
  -3568873.990 6  -2843915.73544  23538940.523    23538933.152
        38.600          25.100
   -857679.881 5                  25289909.688
        34.800
 23  8  4 15  1 30.0000000  0  9G12G25G05G20G11G31G29G28G18
 -15345966.239 7 -11315478.61046  21955709.844    21955701.418
        46.000          38.500
 -24240433.930 8 -18842364.44747  20342296.727    20342290.117
        49.300          42.500
 -16862018.488 7 -12232854.36046  21984747.906    21984740.242
        47.200          37.400
 -20886793.832 8 -15082094.07346  21238168.289    21238158.867
        48.800          39.100
 -22102264.568 7 -16950731.28546  21480739.672    21480731.715
        47.600          39.000
   -667625.068 6  -4116254.20446  24201108.789    24201101.594
        38.600          37.200
 -14256874.527 7 -10859027.50346  21412975.547    21412966.594
        47.900          40.600
  -3554488.747 6  -2832706.48044  23541679.000    23541670.047
        37.200          24.200
   -910599.035 5                  25279839.711
        31.500
 23  8  4 15  1 45.0000000  0  9G12G25G05G20G11G31G29G28G18
 -15299188.453 7 -11279028.43246  21964611.594    21964603.227
        46.400          37.600
 -24227284.635 8 -18832118.26747  20344799.078    20344792.352
        49.500          43.100
 -16903563.024 7 -12265226.71046  21976842.234    21976834.629
        46.200          36.900
 -20894680.783 8 -15088239.75846  21236667.305    21236658.410
        48.300          39.100
 -22068866.413 7 -16924706.76746  21487095.039    21487086.906
        46.800          38.800
   -677821.037 6  -4124199.10346  24199169.555    24199161.656
        40.500          37.800
 -14287252.259 7 -10882698.47046  21407194.563    21407185.961
        47.700          40.200
  -3539969.827 6  -2821393.05444  23544441.781    23544433.824
        39.400          25.300
   -963499.391 5                  25269772.844
        31.500
 23  8  4 15  2  0.0000000  0  9G12G25G05G20G11G31G29G28G18
 -15252316.354 7 -11242504.77546  21973531.180    21973522.520
        46.600          38.500
 -24213981.207 8 -18821751.97547  20347330.445    20347323.777
        49.100          42.800
 -16944994.681 7 -12297511.12546  21968957.734    21968949.953
        46.500          36.900
 -20902415.542 8 -15094266.85446  21235195.352    21235186.516
        48.500          39.100
 -22035377.626 7 -16898611.63446  21493467.867    21493459.559
        47.300          38.400
   -687867.854 6  -4132027.79346  24197257.078    24197250.059
        39.700          37.600
 -14317559.256 7 -10906314.32946  21401427.250    21401418.297
        47.100          40.900
  -3525311.021 6  -2809970.63044  23547230.047    23547223.379
        38.300          25.400
  -1016374.47415                  25259711.125
        30.500
 23  8  4 15  2 15.0000000  0  9G12G25G05G20G11G31G29G28G18
 -15205366.393 7 -11205920.44046  21982465.422    21982456.879
        46.200          37.600
 -24200539.823 8 -18811278.19647  20349888.055    20349881.504
        49.100          42.600
 -16986329.612 7 -12329720.16246  21961092.109    21961084.563
        47.000          37.000
 -20910014.142 8 -15100187.84746  21233749.352    21233740.398
        48.500          39.100
 -22001814.621 7 -16872458.66646  21499855.125    21499846.641
        47.600          38.300
   -697781.762 6  -4139752.90946  24195371.055    24195362.629
        40.200          37.600
 -14347811.614 7 -10929887.60546  21395670.305    21395662.055
        47.000          40.500
  -3510528.645 6  -2798451.93844  23550043.125    23550036.457
        39.100          24.500
  -1069240.17915                  25249652.547
        33.900
 23  8  4 15  2 30.0000000  0  9G12G25G05G20G11G31G29G28G18
 -15158323.709 7 -11169263.85546  21991417.359    21991408.875
        47.700          37.400
 -24186945.520 8 -18800685.25347  20352475.375    20352468.648
        48.300          42.800
 -17027552.374 7 -12361841.77746  21953247.711    21953240.047
        45.700          37.000
 -20917461.370 8 -15105990.89446  21232332.664    21232323.008
        49.100          38.600
 -21968162.579 7 -16846236.33546  21506258.453    21506250.496
        47.500          38.200
   -707547.560 6  -4147362.62046  24193514.141    24193504.777
        41.200          37.200
 -14377994.259 7 -10953406.54746  21389926.742    21389918.668
        46.600          40.300
  -3495607.846 6  -2786825.39444  23552882.945    23552875.926
        37.700          25.800
  -1122081.351 5                  25239597.523
        33.000
 23  8  4 15  2 45.0000000  0  9G12G25G05G20G11G31G29G28G18
 -15111193.600 7 -11132539.12846  22000385.070    22000377.113
        46.800          38.000
 -24173203.523 8 -18789977.22347  20355089.906    20355083.473
        48.200          42.700
 -17068667.549 7 -12393879.58346  21945423.430    21945415.648
        46.200          36.800
 -20924762.440 8 -15111680.04546  21230943.320    21230933.664
        49.500          39.200
 -21934426.911 7 -16819948.82646  21512678.453    21512670.320
        47.800          38.700
   -717170.367 6  -4154860.93846  24191681.188    24191673.582
        39.200          36.100
 -14408111.973 7 -10976874.90346  21384195.758    21384187.098
        47.500          41.200
  -3480553.914 6  -2775095.04644  23555748.531    23555740.164
        39.400          27.600
  -1174902.834 4                  25229543.469
        28.600
 23  8  4 15  3  0.0000000  0  9G12G25G05G20G11G31G29G28G18
 -15063969.931 7 -11095741.52346  22009372.320    22009363.777
        46.700          38.100
 -24159307.318 8 -18779149.03447  20357734.492    20357728.059
        48.000          42.900
 -17109668.197 7 -12425828.14346  21937621.852    21937613.484
        46.500          37.200
 -20931910.774 8 -15117250.18946  21229582.820    21229573.457
        49.100          38.900
 -21900601.331 7 -16793591.26046  21519114.898    21519106.824
        46.700          39.000
   -726643.539 6  -4162242.64145  24189876.742    24189871.363
        37.900          35.100
 -14438158.243 7 -11000287.58846  21378477.984    21378470.086
        47.500          41.200
  -3465360.669 6  -2763256.13243  23558637.984    23558630.730
        36.700          22.500
  -1227698.13114                  25219496.023
        27.600
 23  8  4 15  3 15.0000000  0  9G12G25G05G20G11G31G29G28G18
 -15016667.902 7 -11058882.84446  22018373.242    22018365.344
        47.500          37.500
 -24145271.870 8 -18768212.34547  20360405.688    20360398.668
        48.900          43.000
 -17150569.111 7 -12457698.97346  21929838.406    21929830.449
        46.800          37.000
 -20938921.075 8 -15122712.77246  21228248.203    21228239.484
        48.900          39.600
 -21866700.894 7 -16767175.35946  21525566.320    21525558.422
        47.800          38.600
   -735981.801 6  -4169519.20345  24188103.250    24188093.945
        41.200          35.400
 -14468147.748 7 -11023656.03546  21372771.609    21372763.301
        47.800          41.600
  -3450042.964 6  -2751320.33843  23561554.203    23561545.484
        37.000          23.500
  -1280481.63014                  25209454.297
        29.600
 23  8  4 15  3 30.0000000  0  9G12G25G05G20G11G31G29G28G18
 -14969276.139 7 -11021954.23946  22027392.336    22027383.031
        46.800          37.700
 -24131085.684 8 -18757158.19947  20363105.055    20363098.563
        49.100          43.200
 -17191358.260 7 -12489482.70946  21922076.445    21922068.781
        46.600          36.800
 -20945781.776 8 -15128058.77946  21226943.070    21226934.234
        48.700          38.900
 -21832714.341 7 -16740692.34746  21532033.297    21532025.340
        47.600          38.600
   -745173.548 6  -4176681.60046  24186353.453    24186344.734
        41.100          36.100
 -14498068.757 7 -11046971.11446  21367077.734    21367069.074
        47.500          41.900
  -3434589.564 6  -2739278.78244  23564494.914    23564487.133
        38.300          26.000
  -1333241.84215                  25199415.242
        33.300
 23  8  4 15  3 45.0000000  0  9G12G25G05G20G11G31G29G28G18
 -14921796.454 7 -10984957.12246  22036426.781    22036418.531
        46.900          38.200
 -24116750.502 8 -18745987.93947  20365832.820    20365826.387
        49.600          42.900
 -17232036.624 7 -12521180.13346  21914335.828    21914327.578
        47.200          36.500
 -20952494.344 8 -15133289.35346  21225665.953    21225656.531
        48.800          39.400
 -21798643.545 7 -16714143.70346  21538516.906    21538508.949
        47.200          38.500
   -754220.446 6  -4183731.15046  24184630.742    24184623.020
        39.900          36.300
 -14527922.866 7 -11070234.07246  21361396.719    21361388.234
        47.400          41.300
  -3419002.276 6  -2727132.84744  23567460.961    23567453.648
        38.800          26.400
  -1385980.279 5                  25189377.008
        30.700
 23  8  4 15  4  0.0000000  0  9G12G25G05G20G11G31G29G28G18
 -14874231.056 7 -10947893.22446  22045478.930    22045469.508
        46.800          37.700
 -24102268.204 8 -18734703.05547  20368588.641    20368582.207
        48.200          42.900
 -17272605.602 7 -12552792.32246  21906615.508    21906607.844
        46.600          37.000
 -20959060.573 8 -15138405.90446  21224416.031    21224406.727
        48.600          39.800
 -21764490.584 7 -16687531.02846  21545016.094    21545008.078
        47.300          38.700
   -763124.167 6  -4190669.17345  24182938.438    24182928.840
        41.000          35.600
 -14557711.724 7 -11093446.16346  21355728.109    21355719.215
        47.600          40.800
  -3403283.097 6  -2714884.18244  23570452.750    23570445.086
        36.900          25.800
  -1438698.405 5                  25179344.867
        31.500
 23  8  4 15  4 15.0000000  0  9G12G25G05G20G11G31G29G28G18
 -14826578.975 7 -10910761.76446  22054545.977    22054538.020
        46.400          38.000
 -24087637.627 8 -18723302.62147  20371373.070    20371366.168
        49.200          42.600
 -17313063.988 7 -12584318.32946  21898916.328    21898908.137
        47.000          37.400
 -20965479.332 8 -15143407.53846  21223194.789    21223186.246
        49.300          39.800
 -21730254.455 7 -16660853.54946  21551531.148    21551523.250
        47.300          38.300
   -771883.530 6  -4197494.59145  24181270.031    24181262.074
        39.500          34.700
 -14587433.798 7 -11116606.22346  21350071.953    21350063.586
        47.500          40.600
  -3387431.051 6  -2702531.97944  23573469.594    23573461.344
        38.100          24.300
  -1491395.048 5                  25169317.063
        31.600
 23  8  4 15  4 30.0000000  0  9G12G25G05G20G11G31G29G28G18
 -14778840.747 7 -10873563.20246  22063631.133    22063622.414
        47.000          38.300
 -24072859.171 8 -18711786.96247  20374184.922    20374178.605
        49.300          43.200
 -17353411.750 7 -12615758.15046  21891239.594    21891230.523
        47.500          37.500
 -20971750.934 8 -15148294.51046  21222001.281    21221992.855
        48.900          39.500
 -21695935.717 7 -16634111.70846  21558061.641    21558053.449
        47.100          38.300
   -780498.765 6  -4204207.77345  24179630.906    24179622.832
        40.100          35.400
 -14617089.348 7 -11139714.44646  21344428.883    21344420.340
        47.600          41.500
  -3371446.591 6  -2690076.57444  23576509.828    23576502.809
        37.700          25.800
  -1544070.153 5                  25159293.844
        33.100
 23  8  4 15  4 45.0000000  0  9G12G25G05G20G11G31G29G28G18
 -14731017.229 7 -10836298.18146  22072731.047    22072723.207
        46.800          37.500
 -24057933.484 8 -18700156.58047  20377025.703    20377018.859
        48.800          42.500
 -17393648.691 7 -12647111.59946  21883581.711    21883573.930
        46.600          37.000
 -20977875.732 8 -15153067.09046  21220836.070    21220827.059
        49.000          39.400
 -21661535.245 7 -16607306.16046  21564607.984    21564599.969
        47.100          37.800
   -788970.381 6  -4210809.03745  24178018.594    24178010.285
        40.700          35.700
 -14646678.910 8 -11162771.25446  21338798.156    21338789.672
        48.800          41.700
  -3355330.546 6  -2677518.63844  23579576.938    23579569.508
        38.400          26.100
  -1596724.249 5                  25149274.789
        33.900
 23  8  4 15  5  0.0000000  0  9G12G25G05G20G11G31G29G28G18
 -14683108.429 7 -10798966.71046  22081847.859    22081839.551
        46.900          37.100
 -24042860.390 8 -18688411.33847  20379893.773    20379887.457
        49.800          43.100
 -17433774.588 7 -12678378.53646  21875945.930    21875938.324
        47.300          37.300
 -20983853.376 8 -15157725.00246  21219698.477    21219689.934
        48.600          39.800
 -21627052.995 7 -16580436.89646  21571169.641    21571161.508
        47.000          37.900
   -797298.076 6  -4217298.12745  24176434.320    24176425.250
        41.000          35.600
 -14676202.073 8 -11185776.32346  21333179.930    21333171.445
        48.600          41.300
  -3339082.839 6  -2664858.09544  23582669.523    23582661.859
        38.600          25.400
  -1649356.907 6    -20907.30852  25139258.961    25139254.348
        36.000          17.800
 23  8  4 15  5 15.0000000  0  9G12G25G05G20G11G31G29G28G18
 -14635114.478 7 -10761568.85846  22090980.586    22090972.805
        47.000          36.900
 -24027639.845 8 -18676551.18647  20382790.242    20382783.281
        50.000          43.100
 -17473789.201 7 -12709558.75146  21868331.945    21868323.461
        47.600          38.400
 -20989683.624 8 -15162268.05546  21218588.859    21218579.848
        49.500          40.000
 -21592489.020 7 -16553503.95846  21577747.063    21577738.871
        47.500          37.400
   -805481.608 6  -4223674.91146  24174875.445    24174868.191
        39.900          36.400
 -14705658.519 8 -11208729.41246  21327574.414    21327565.871
        48.600          41.500
  -3322703.470 6  -2652095.03444  23585786.008    23585779.105
        38.200          25.800
  -1701967.747 6    -61902.75843  25129248.086    25129243.941
        37.400          19.000
 23  8  4 15  5 30.0000000  0  9G12G25G05G20G11G31G29G28G18
 -14587035.998 7 -10724105.15346  22100130.266    22100121.723
        46.500          37.000
 -24012272.368 8 -18664576.54647  20385714.859    20385708.191
        49.600          43.200
 -17513692.282 7 -12740652.05946  21860737.961    21860730.824
        46.600          38.200
 -20995366.963 8 -15166696.64746  21217507.391    21217498.789
        48.600          39.100
 -21557844.104 7 -16526507.94846  21584339.813    21584331.621
        47.300          38.100
   -813521.505 6  -4229939.79146  24173347.313    24173338.359
        41.400          37.200
 -14735048.537 8 -11231630.72446  21321981.742    21321973.492
        48.600          41.300
  -3306193.220 6  -2639229.94144  23588927.555    23588920.945
        37.500          24.200
  -1754557.174 6   -102881.46143  25119241.227    25119236.145
        37.500          18.300
 23  8  4 15  5 45.0000000  0  9G12G25G05G20G11G31G29G28G18
 -14538872.935 7 -10686575.55246  22109295.117    22109287.219
        46.600          37.100
 -23996757.707 8 -18652487.21747  20388666.930    20388660.203
        49.900          42.800
 -17553482.771 7 -12771657.62846  21853166.172    21853158.508
        47.000          37.800
 -21000903.036 8 -15171010.47646  21216453.977    21216444.906
        48.800          39.400
 -21523118.083 7 -16499448.72646  21590947.438    21590939.480
        46.900          38.200
   -821417.315 6  -4236092.37346  24171844.531    24171836.105
        41.400          36.800
 -14764371.667 8 -11254479.92846  21316402.094    21316393.434
        48.400          41.600
  -3289551.919 6  -2626262.69044  23592094.609    23592087.414
        38.900          24.600
  -1807124.541 5   -143842.99042  25109237.484    25109233.047
        35.300          16.900
 23  8  4 15  6  0.0000000  0  9G12G25G05G20G11G31G29G28G18
 -14490626.059 7 -10648980.62346  22118475.836    22118468.055
        46.600          36.800
 -23981096.339 8 -18640283.56747  20391647.313    20391640.645
        49.500          42.800
 -17593161.120 7 -12802575.84146  21845615.398    21845608.145
        47.200          37.600
 -21006292.234 8 -15175209.85146  21215428.406    21215419.512
        48.600          38.900
 -21488311.644 7 -16472326.84846  21597571.383    21597563.543
        47.200          38.000
   -829169.352 6  -4242132.90446  24170368.336    24170361.141
        40.000          36.700
 -14793628.145 8 -11277277.18346  21310834.180    21310826.457
        48.300          41.200
  -3272780.125 6  -2613193.77244  23595286.602    23595278.293
        39.500          26.200
  -1859670.143 5   -184787.60242  25099238.844    25099233.703
        34.700          16.900
 23  8  4 15  6 15.0000000  0  9G12G25G05G20G11G31G29G28G18
 -14442294.209 7 -10611319.50646  22127673.859    22127665.434
        45.200          37.000
 -23965286.952 8 -18627964.58247  20394655.578    20394649.203
        49.100          42.400
 -17632725.615 7 -12833405.30846  21838087.430    21838078.887
        47.400          38.400
 -21011533.046 8 -15179293.61046  21214431.492    21214421.777
        48.800          39.800
 -21453423.600 7 -16445141.38746  21604210.563    21604202.547
        45.800          38.200
   -836776.203 6  -4248060.35746  24168920.750    24168913.262
        40.700          36.400
 -14822816.468 8 -11300021.33346  21305280.336    21305272.145
        48.300          41.300
  -3255876.665 6  -2600022.23944  23598503.109    23598495.445
        38.500          25.400
  -1912192.414 5                  25089244.414
        35.000
 23  8  4 15  6 30.0000000  0  9G12G25G05G20G11G31G29G28G18
 -14393879.309 7 -10573593.66746  22136886.617    22136878.777
        46.600          36.400
 -23949331.353 8 -18615531.66347  20397692.594    20397685.398
        50.100          42.600
 -17672177.624 7 -12864147.12246  21830579.422    21830571.641
        47.300          37.600
 -21016627.091 8 -15183263.00546  21213461.164    21213452.914
        48.100          39.700
 -21418455.887 7 -16417893.84546  21610864.430    21610856.824
        47.500          38.300
   -844239.528 6  -4253875.93845  24167502.984    24167492.801
        41.800          35.900
 -14851938.222 8 -11322713.61146  21299738.398    21299729.855
        48.800          41.500
  -3238843.417 6  -2586749.60644  23601742.789    23601737.176
        36.400          24.100
  -1964692.917 5   -211060.33652  25079253.516    25079246.730
        33.900          15.600
 23  8  4 15  6 45.0000000  0  9G12G25G05G20G11G31G29G28G18
 -14345379.856 7 -10535801.93446  22146115.305    22146107.406
        46.200          36.500
 -23933227.934 8 -18602983.57347  20400756.602    20400749.758
        50.000          43.100
 -17711514.973 7 -12894799.59446  21823093.992    21823085.742
        46.900          37.600
 -21021572.665 8 -15187116.69846  21212520.883    21212512.047
        49.200          39.900
 -21383407.128 7 -16390583.14046  21617534.273    21617526.316
        46.700          37.800
   -851557.655 6  -4259578.42045  24166107.430    24166099.824
        39.000          34.300
 -14880991.412 8 -11345352.46946  21294209.992    21294201.391
        48.700          41.200
  -3221678.991 6  -2573374.81344  23605009.609    23605003.410
        37.100          24.000
  -2017169.633 5   -251951.26542  25069263.344    25069260.664
        30.500          14.800
 23  8  4 15  7  0.0000000  0  9G12G25G05G20G11G31G29G28G18
 -14296796.387 7 -10497944.74346  22155360.563    22155353.191
        47.000          37.300
 -23916976.973 8 -18590320.50147  20403848.539    20403841.695
        49.300          43.200
 -17750737.643 7 -12925362.70946  21815630.133    21815621.941
        47.500          38.000
 -21026369.937 8 -15190854.84646  21211608.078    21211599.066
        49.100          39.700
 -21348277.709 7 -16363209.58946  21624218.711    21624210.813
        46.800          38.600
   -858730.657 6  -4265167.77545  24164741.758    24164735.031
        38.200          34.100
 -14909976.159 8 -11367937.98946  21288694.117    21288685.047
        48.100          41.700
  -3204383.718 6  -2559898.00444  23608302.039    23608294.902
        38.100          26.700
  -2069622.727 5   -292823.75142  25059283.203    25059279.410
        32.000          16.300
 23  8  4 15  7 15.0000000  0  9G12G25G05G20G11G31G29G28G18
 -14248131.401 7 -10460024.02846  22164621.477    22164613.754
        45.900          36.600
 -23900580.651 8 -18577544.16747  20406968.945    20406961.926
        49.200          42.700
 -17789847.171 7 -12955837.67146  21808187.648    21808180.043
        47.800          38.300
 -21031020.909 8 -15194478.98346  21210722.813    21210713.742
        48.400          39.600
 -21313069.980 7 -16335775.02646  21630918.672    21630911.008
        46.800          37.500
   -865760.690 6  -4270645.68445  24163407.188    24163397.707
        39.100          34.400
 -14938894.410 8 -11390471.70846  21283191.102    21283182.852
        48.600          41.900
  -3186959.967 6  -2546321.07644  23611618.641    23611610.215
        39.400          26.700
  -2122054.199 5   -333679.42442  25049306.766    25049302.445
        34.300          15.600
 23  8  4 15  7 30.0000000  0  9G12G25G05G20G11G31G29G28G18
 -14199383.908 7 -10422039.04246  22173898.102    22173890.262
        45.700          36.300
 -23884037.896 8 -18564653.71547  20410116.805    20410110.195
        49.400          42.500
 -17828841.946 7 -12986223.19946  21800767.086    21800759.188
        47.600          37.800
 -21035524.329 8 -15197988.14646  21209866.008    21209856.879
        49.700          39.400
 -21277783.005 7 -16308278.70146  21637633.617    21637625.836
        47.300          38.600
   -872646.434 6  -4276011.19045  24162094.102    24162087.609
        37.900          34.300
 -14967744.778 8 -11412952.52046  21277701.266    21277692.957
        48.800          41.600
  -3169406.751 6  -2532643.24944  23614957.180    23614950.570
        38.100          25.200
  -2174462.570 5   -374517.08442  25039333.469    25039329.559
        34.400          16.300
 23  8  4 15  7 45.0000000  0  9G12G25G05G20G11G31G29G28G18
 -14150553.080 7 -10383989.10246  22183189.906    22183182.301
        46.100          36.000
 -23867347.688 8 -18551648.38347  20413293.117    20413286.508
        49.600          42.900
 -17867720.904 7 -13016518.49846  21793369.234    21793360.809
        47.000          37.900
 -21039879.129 8 -15201381.50246  21209037.188    21209028.234
        49.400          40.000
 -21242415.976 7 -16280719.99846  21644364.516    21644355.738
        47.300          38.400
   -879386.604 6  -4281263.27245  24160811.469    24160804.566
        39.200          33.800
 -14996526.186 8 -11435379.59947  21272224.281    21272216.031
        48.000          42.100
  -3151723.172 6  -2518863.85843  23618321.336    23618315.371
        36.700          23.000
  -2226846.640 5   -415335.85142  25029365.508    25029362.184
        34.700          15.600
 23  8  4 15  8  0.0000000  0  9G12G25G05G20G11G31G29G28G18
 -14101641.708 7 -10345876.40346  22192497.695    22192489.680
        45.700          36.800
 -23850512.754 8 -18538530.28047  20416496.234    20416490.035
        49.300          42.900
 -17906486.117 7 -13046725.15646  21785992.180    21785984.223
        46.600          38.000
 -21044087.847 8 -15204661.02246  21208236.391    21208226.910
        49.100          39.700
 -21206971.662 7 -16253101.07246  21651108.734    21651100.719
        47.100          37.500
   -885983.966 6  -4286404.07645  24159558.125    24159549.465
        41.600          34.700
 -15025240.992 7 -11457754.77247  21266759.750    21266751.852
        47.500          42.200
  -3133912.055 6  -2504985.09544  23621713.094    23621704.609
        40.000          24.200
  -2279208.816 5   -456137.58342  25019402.633    25019397.195
        35.000          16.300
 23  8  4 15  8 15.0000000  0  9G12G25G05G20G11G31G29G28G18
 -14052648.706 7 -10307700.07946  22201820.531    22201812.867
        45.500          36.500
 -23833531.779 8 -18525298.36547  20419728.164    20419721.672
        49.700          42.600
 -17945135.796 7 -13076841.77546  21778637.188    21778629.289
        46.600          38.000
 -21048149.032 8 -15207825.59346  21207463.133    21207454.238
        48.500          39.400
 -21171448.928 7 -16225421.05046  21657868.422    21657860.055
        47.400          37.700
   -892437.200 6  -4291432.59645  24158329.352    24158321.219
        40.900          35.600
 -15053887.671 8 -11480076.85147  21261308.984    21261300.441
        48.100          42.400
  -3115972.193 6  -2491006.01344  23625126.117    23625117.984
        39.900          26.500
  -2331547.571 6   -496920.94442  25009443.031    25009437.125
        37.900          15.600
 23  8  4 15  8 30.0000000  0  9G12G25G05G20G11G31G29G28G18
 -14003573.397 7 -10269459.64146  22211160.125    22211152.051
        46.700          36.600
 -23816403.845 8 -18511951.94947  20422987.156    20422981.074
        49.100          42.500
 -17983668.532 7 -13106867.26146  21771305.063    21771296.402
        46.500          37.300
 -21052061.719 8 -15210874.43646  21206718.477    21206709.934
        48.800          39.600
 -21135847.086 7 -16197679.38146  21664643.000    21664635.277
        47.700          37.800
   -898745.207 6  -4296347.97445  24157129.336    24157120.207
        40.700          35.500
 -15082465.145 7 -11502345.01947  21255870.781    21255862.180
        47.600          42.200
  -3097902.947 6  -2476926.07844  23628564.000    23628556.922
        39.000          26.100
  -2383861.767 6   -537685.24942  24999486.891    24999481.984
        37.000          16.300
 23  8  4 15  8 45.0000000  0  9G12G25G05G20G11G31G29G28G18
 -13954417.409 7 -10231156.32246  22220513.352    22220505.512
        45.200          36.000
 -23799130.506 8 -18498492.22247  20426274.563    20426267.836
        49.300          42.900
 -18022085.429 7 -13136802.49446  21763994.016    21763986.234
        46.500          37.800
 -21055827.341 8 -15213808.69246  21206002.211    21205992.965
        48.800          39.100
 -21100167.731 7 -16169877.31246  21671433.289    21671424.863
        47.100          37.400
   -904909.335 6  -4301151.22445  24155956.375    24155948.008
        41.300          35.300
 -15110974.714 7 -11524560.27047  21250445.766    21250437.047
        47.500          42.100
  -3079705.835 6  -2462746.55844  23632028.477    23632020.227
        39.000          25.400
  -2436152.631 6   -578431.32642  24989537.445    24989531.246
        36.200          16.900
 23  8  4 15  9  0.0000000  0  9G12G25G05G20G11G31G29G28G18
 -13905180.147 7 -10192789.68345  22229883.219    22229875.320
        45.300          35.700
 -23781710.924 8 -18484918.55047  20429589.023    20429582.766
        49.500          42.800
 -18060385.291 7 -13166646.52846  21756706.156    21756698.141
        47.100          38.100
 -21059444.778 7 -15216627.47846  21205313.602    21205304.883
        47.900          39.000
 -21064410.198 7 -16142014.31346  21678237.734    21678229.426
        46.600          37.700
   -910928.627 6  -4305841.54945  24154809.109    24154802.500
        39.400          34.700
 -15139415.122 8 -11546721.63547  21245033.922    21245024.910
        48.100          42.000
  -3061380.108 6  -2448466.83944  23635515.586    23635507.395
        39.400          26.100
  -2488418.995 5   -619158.38342  24979589.117    24979585.441
        34.100          16.300
 23  8  4 15  9 15.0000000  0  9G12G25G05G20G11G31G29G28G18
 -13855861.592 7 -10154359.69646  22239268.445    22239260.664
        46.700          36.300
 -23764144.923 8 -18471230.78147  20432931.906    20432925.355
        48.700          42.300
 -18098567.445 7 -13196398.84846  21749440.117    21749432.570
        46.700          37.700
 -21062913.820 8 -15219330.62546  21204653.820    21204644.516
        49.200          39.400
 -21028574.462 7 -16114090.38846  21685056.664    21685048.531
        46.600          38.200
   -916802.696 6  -4310418.74645  24153692.969    24153684.602
        39.000          34.600
 -15167786.092 7 -11568828.89946  21239634.461    21239626.035
        47.900          41.700
  -3042925.792 6  -2434086.87543  23639025.422    23639018.871
        38.500          23.400
  -2540660.491 5   -659866.02242  24969646.359    24969644.031
        32.800          16.300
 23  8  4 15  9 30.0000000  0  9G12G25G05G20G11G31G29G28G18
 -13806462.840 7 -10115867.23446  22248668.617    22248660.895
        45.200          36.100
 -23746433.468 8 -18457429.66547  20436302.641    20436295.621
        49.300          42.300
 -18136632.730 7 -13226060.08746  21742195.781    21742188.762
        46.900          38.600
 -21066235.201 8 -15221918.72246  21204021.586    21204012.750
        48.900          39.400
 -20992661.674 7 -16086106.41946  21691891.172    21691882.863
        47.200          38.000
   -922532.482 6  -4314883.51445  24152601.242    24152594.516
        38.800          34.000
 -15196088.232 8 -11590882.51946  21234249.117    21234240.633
        48.000          41.700
  -3024344.021 6  -2419607.56443  23642561.648    23642554.570
        38.400          23.000
  -2592877.891 5   -700554.85442  24959709.758    24959708.133
        30.300          14.800
 23  8  4 15  9 45.0000000  0  9G12G25G05G20G11G31G29G28G18
 -13756983.125 7 -10077311.63346  22258084.594    22258075.934
        44.300          36.500
 -23728575.671 8 -18443514.52047  20439700.727    20439693.824
        48.200          42.500
 -18174579.423 7 -13255628.92146  21734975.547    21734967.648
        47.000          38.000
 -21069408.017 8 -15224391.04346  21203417.711    21203409.168
        48.400          39.500
 -20956671.011 7 -16058061.77146  21698739.711    21698731.520
        46.800          37.600
   -928116.914 6  -4319234.99945  24151539.398    24151531.793
        39.700          34.800
 -15224320.502 7 -11612881.69646  21228876.961    21228868.242
        47.900          41.700
  -3005633.930 6  -2405028.29143  23646122.758    23646114.273
        38.100          22.500
  -2645069.929 5   -741223.93742  24949778.461    24949776.719
        32.300          14.800
 23  8  4 15 10  0.0000000  0  9G12G25G05G20G11G31G29G28G18
 -13707424.067 7 -10038694.23346  22267514.961    22267507.355
        45.900          36.000
 -23710572.914 8 -18429486.42847  20443126.148    20443119.539
        48.800          42.400
 -18212408.325 7 -13285105.97346  21727776.867    21727769.496
        46.700          38.800
 -21072433.514 8 -15226748.57846  21202842.703    21202833.223
        48.100          39.600
 -20920604.043 7 -16029957.67246  21705602.633    21705595.438
        46.800          38.200
   -933557.215 6  -4323474.22446  24150505.156    24150496.320
        41.900          36.500
 -15252483.947 8 -11634827.24246  21223517.867    21223509.090
        48.800          41.600
  -2986797.053 6  -2390350.23044  23649706.672    23649700.063
        38.500          26.300
  -2697237.67714   -781874.07052  24939850.930    24939849.363
        29.100          14.800
 23  8  4 15 10 15.0000000  0  9G12G25G05G20G11G31G29G28G18
 -13657786.661 7 -10000015.79446  22276960.367    22276953.406
        45.100          36.300
 -23692426.121 8 -18415346.09347  20446579.570    20446572.961
        49.500          42.600
 -18250120.284 7 -13314491.89846  21720600.836    21720592.527
        47.000          38.700
 -21075312.397 8 -15228991.86546  21202293.961    21202285.242
        48.900          39.900
 -20884461.791 7 -16001794.90046  21712480.273    21712472.609
        46.200          37.700
   -938854.296 6  -4327601.83946  24149497.133    24149488.238
        41.600          36.200
 -15280579.225 8 -11656719.67046  21218170.883    21218162.516
        48.300          41.900
  -2967834.417 6  -2375574.21543  23653316.086    23653308.832
        38.300          23.500
  -2749381.88315                  24929930.367
        32.300
 23  8  4 15 10 30.0000000  0  9G12G25G05G20G11G31G29G28G18
 -13608070.477 7  -9961275.95745  22286421.828    22286414.340
        45.700          35.500
 -23674134.547 8 -18401092.92747  20450060.195    20450053.586
        48.600          42.100
 -18287713.946 7 -13343785.65346  21713446.609    21713438.652
        47.900          39.000
 -21078043.732 8 -15231120.18146  21201774.875    21201765.688
        49.500          39.800
 -20848243.652 7 -15973573.00146  21719372.352    21719364.512
        47.200          37.400
   -944007.185 7  -4331617.07646  24148516.961    24148508.125
        42.000          36.600
 -15308605.640 8 -11678558.44347  21212838.000    21212829.457
        48.200          42.500
  -2948745.502 6  -2360699.76044  23656948.813    23656941.500
        37.900          26.200
  -2801501.496 5   -825665.55352  24920012.898    24920006.523
        31.900          16.300
 23  8  4 15 10 45.0000000  0  9G12G25G05G20G11G31G29G28G18
 -13558275.405 7  -9922474.64545  22295897.688    22295889.262
        45.300          35.500
 -23655697.999 8 -18386726.80947  20453568.430    20453562.230
        48.600          42.100
 -18325188.915 7 -13372986.91346  21706315.117    21706307.277
        47.000          39.100
 -21080627.328 8 -15233133.37046  21201282.789    21201273.660
        48.500          40.000
 -20811949.626 7 -15945291.96246  21726279.383    21726271.191
        47.000          37.400
   -949015.644 6  -4335519.80346  24147562.367    24147555.055
        41.700          36.300
 -15336562.531 8 -11700343.03046  21207517.547    21207509.004
        48.100          41.900
  -2929530.103 6  -2345726.77544  23660604.836    23660598.168
        38.100          27.100
  -2853596.014 5   -866258.61742  24910099.625    24910094.070
        33.400          16.300
 23  8  4 15 11  0.0000000  0  9G12G25G05G20G11G31G29G28G18
 -13508400.348 7  -9883611.01345  22305388.492    22305380.066
        46.100          35.600
 -23637115.255 8 -18372246.77147  20457105.164    20457098.086
        48.900          42.400
 -18362543.498 7 -13402094.36546  21699206.867    21699199.262
        47.500          38.900
 -21083061.722 8 -15235030.30946  21200819.844    21200810.656
        49.300          40.200
 -20775578.545 7 -15916950.88946  21733200.133    21733192.059
        46.500          38.100
   -953878.271 6  -4339308.86745  24146636.711    24146630.277
        40.600          35.300
 -15364448.262 8 -11722072.17646  21202210.977    21202202.727
        49.200          41.900
  -2910187.184 6  -2330654.39344  23664286.031    23664278.367
        39.600          25.100
  -2905664.00814   -906831.02952  24900188.406    24900186.254
        28.900          16.300
 23  8  4 15 11 15.0000000  0  9G12G25G05G20G11G31G29G28G18
 -13458447.814 7  -9844686.99646  22314893.633    22314885.793
        45.100          36.500
 -23618388.596 8 -18357654.58447  20460668.602    20460661.875
        49.300          42.900
 -18399779.130 7 -13431109.12746  21692121.398    21692113.266
        47.000          38.300
 -21085349.293 8 -15236812.83546  21200384.680    21200375.316
        48.200          40.000
 -20739132.857 7 -15888551.67646  21740136.211    21740127.902
        47.100          37.400
   -958597.243 6  -4342986.00145  24145739.641    24145731.508
        40.500          34.600
 -15392264.975 8 -11743747.54647  21196917.930    21196909.270
        49.000          42.000
  -2890719.169 6  -2315484.52743  23667990.391    23667982.434
        37.500          22.500
  -2957707.48515   -947384.27852  24890287.703    24890283.734
        30.800          15.600
 23  8  4 15 11 30.0000000  0  9G12G25G05G20G11G31G29G28G18
 -13408416.902 7  -9805701.92546  22324415.219    22324406.559
        45.300          36.300
 -23599516.966 8 -18342949.43447  20464259.875    20464253.031
        49.000          42.800
 -18436894.510 7 -13460030.19046  21685058.320    21685050.656
        47.600          38.500
 -21087488.612 8 -15238479.83946  21199977.008    21199968.406
        48.700          39.900
 -20702611.597 7 -15860093.57746  21747085.172    21747077.098
        46.300          37.400
   -963171.409 6  -4346550.30945  24144868.531    24144860.691
        39.400          33.800
 -15420011.327 8 -11765368.09247  21191637.914    21191629.488
        49.100          42.000
  -2871124.981 6  -2300216.34543  23671718.164    23671710.734
        37.200          22.800
  -3009724.99515   -987917.37552  24880390.219    24880385.781
        33.900          15.600
 23  8  4 15 11 45.0000000  0  9G12G25G05G20G11G31G29G28G18
 -13358308.250 7  -9766656.25845  22333949.820    22333941.570
        45.800          35.800
 -23580500.690 8 -18328131.57147  20467878.484    20467871.758
        49.400          42.900
 -18473889.501 7 -13488857.43646  21678018.320    21678010.363
        47.100          38.500
 -21089479.921 8 -15240031.51346  21199598.563    21199589.141
        48.900          39.800
 -20666015.256 7 -15831576.97346  21754049.539    21754041.465
        47.000          37.100
   -967600.979 6  -4350001.95545  24144026.047    24144017.387
        39.900          32.800
 -15447687.336 7 -11786933.82147  21186371.039    21186363.082
        47.500          42.500
  -2851405.259 6  -2284850.33844  23675472.023    23675463.949
        38.200          26.200
  -3061716.726 5  -1028430.31142  24870497.664    24870491.758
        32.200          15.600
 23  8  4 15 12  0.0000000  0  9G12G25G05G20G11G31G29G28G18
 -13308122.320 7  -9727550.36045  22343499.953    22343491.996
        45.200          35.700
 -23561340.358 8 -18313201.46247  20471524.563    20471517.836
        49.300          42.300
 -18510764.468 7 -13517591.16946  21671001.492    21670993.301
        47.600          38.900
 -21091323.750 7 -15241468.26446  21199247.797    21199238.551
        47.900          39.800
 -20629344.547 7 -15803002.42746  21761027.352    21761020.039
        46.800          37.000
   -971886.283 6  -4353341.16745  24143210.938    24143202.395
        40.200          34.800
 -15475293.361 8 -11808445.01347  21181117.719    21181109.586
        48.000          42.200
  -2831560.611 6  -2269387.01044  23679248.008    23679240.461
        40.000          25.800
  -3113682.803 5                  24860607.594
        31.300
 23  8  4 15 12 15.0000000  0  9G12G25G05G20G11G31G29G28G18
 -13257859.178 7  -9688384.33945  22353064.992    22353056.977
        45.500          35.500
 -23542035.823 8 -18298158.98647  20475197.758    20475191.500
        49.300          42.600
 -18547518.439 8 -13546230.61846  21664007.844    21663999.184
        48.100          39.200
 -21093019.862 8 -15242789.90846  21198924.969    21198916.191
        49.100          39.700
 -20592599.447 7 -15774369.90946  21768019.688    21768012.609
        45.900          37.600
   -976027.106 6  -4356567.77046  24142422.375    24142415.707
        40.200          36.900
 -15502829.194 8 -11829901.49647  21175878.484    21175869.590
        48.900          42.000
  -2811591.041 6  -2253826.33544  23683048.945    23683040.813
        41.300          25.900
  -3165622.88814                  24850723.297
        29.900
 23  8  4 15 12 30.0000000  0  9G12G25G05G20G11G31G29G28G18
 -13207516.800 7  -9649156.56745  22362644.969    22362636.660
        45.700          35.100
 -23522584.843 8 -18283002.38947  20478899.617    20478892.715
        49.300          42.500
 -18584148.902 8 -13574773.82546  21657037.016    21657028.707
        48.500          39.000
 -21094565.617 8 -15243994.39846  21198630.758    21198621.980
        49.200          40.200
 -20555777.821 7 -15745677.75846  21775027.148    21775019.367
        46.900          37.500
   -980021.168 6  -4359680.03746  24141662.953    24141655.406
        41.200          37.600
 -15530292.192 8 -11851301.24847  21170652.320    21170643.719
        48.700          42.300
  -2791494.405 6  -2238166.65244  23686872.578    23686865.207
        39.600          25.800
  -3217534.54414                  24840841.422
        26.800
 23  8  4 15 12 45.0000000  0  8G12G25G05G20G11G31G29G28
 -13157099.531 7  -9609870.41945  22372238.672    22372230.773
        46.200          35.400
 -23502991.568 8 -18267734.92047  20482627.820    20482621.563
        49.200          42.600
 -18620659.473 7 -13603223.60046  21650088.766    21650081.277
        47.500          38.600
 -21095965.256 8 -15245085.02546  21198364.328    21198355.727
        48.700          39.800
 -20518883.950 7 -15716929.31346  21782047.656    21782040.461
        47.000          37.200
   -983872.395 7  -4362681.01846  24140930.914    24140921.609
        42.700          36.700
 -15557686.187 8 -11872647.22547  21165439.648    21165430.813
        49.100          42.500
  -2771274.961 6  -2222411.27743  23690719.516    23690712.730
        39.400          23.600
 23  8  4 15 13  0.0000000  0  8G12G25G05G20G11G31G29G28
 -13106605.793 7  -9570524.72745  22381846.820    22381839.625
        45.500          35.200
 -23483254.338 8 -18252355.27147  20486383.945    20486377.336
        49.700          42.800
 -18657048.124 8 -13631578.37646  21643164.641    21643156.039
        48.000          38.200
 -21097216.971 8 -15246060.39746  21198125.836    21198117.117
        49.300          39.900
 -20481916.289 7 -15688123.37946  21789082.141    21789074.535
        46.700          37.100
   -987578.977 6  -4365569.26545  24140223.625    24140216.020
        38.900          34.700
 -15585009.157 8 -11893937.85446  21160240.203    21160231.191
        50.000          41.900
  -2750931.173 6  -2206558.97644  23694592.195    23694583.535
        40.900          25.600
 23  8  4 15 13 15.0000000  0  8G12G25G05G20G11G31G29G28
 -13056035.407 7  -9531119.30145  22391470.141    22391462.770
        44.700          35.500
 -23463372.727 8 -18236863.13347  20490166.891    20490160.516
        49.900          42.300
 -18693314.127 8 -13659837.59246  21636263.258    21636255.242
        48.200          39.000
 -21098320.215 8 -15246920.06946  21197916.258    21197907.363
        48.500          40.100
 -20444874.542 7 -15659259.71146  21796131.453    21796123.730
        46.800          37.400
   -991140.529 6  -4368344.48345  24139546.750    24139538.969
        40.500          34.900
 -15612260.527 8 -11915172.70147  21155054.258    21155045.188
        49.800          42.300
  -2730462.804 6  -2190609.61544  23698486.320    23698479.125
        40.900          27.300
 23  8  4 15 13 30.0000000  0  9G12G25G05G20G11G31G29G28G18
 -13005388.004 7  -9491653.84646  22401109.297    22401100.871
        46.400          36.000
 -23443346.269 8 -18221258.12347  20493978.023    20493971.473
        49.600          42.300
 -18729456.418 7 -13688000.39746  21629385.609    21629377.828
        47.600          39.500
 -21099274.316 8 -15247663.52946  21197734.672    21197725.836
        48.000          40.100
 -20407758.360 7 -15630338.02946  21803193.859    21803185.844
        46.600          36.700
   -994556.250 6  -4371006.11845  24138895.680    24138889.188
        40.400          35.100
 -15639439.468 8 -11936351.11046  21149882.242    21149873.289
        49.000          41.900
  -2709869.370 6  -2174562.81644  23702404.555    23702397.652
        39.700          26.300
    138828.69515                  24801378.875
        34.000
 23  8  4 15 13 45.0000000  0  9G12G25G05G20G11G31G29G28G18
 -12954668.693 7  -9452132.37745  22410760.836    22410752.176
        45.500          35.400
 -23423179.975 8 -18205544.14547  20497815.578    20497808.910
        50.000          42.400
 -18765479.445 8 -13716070.27446  21622531.172    21622522.922
        48.300          39.000
 -21100084.186 8 -15248294.58846  21197580.805    21197571.383
        48.900          40.000
 -20370572.821 7 -15601362.31446  21810269.938    21810262.918
        45.200          37.300
   -997831.064 6  -4373557.93145  24138273.148    24138265.484
        41.300          35.700
 -15666550.827 8 -11957476.84447  21144723.133    21144714.590
        49.000          42.000
  -2689156.048 6  -2158422.60044  23706347.844    23706339.711
        41.400          25.100
     87046.858 5                  24791526.516
        34.500
 23  8  4 15 14  0.0000000  0  9G12G25G05G20G11G31G29G28G18
 -12903873.533 7  -9412551.78545  22420426.133    22420417.824
        44.500          34.800
 -23402869.672 8 -18189717.95547  20501680.539    20501673.930
        49.500          42.600
 -18801378.895 8 -13744043.84846  21615699.578    21615691.270
        48.200          38.800
 -21100745.465 8 -15248809.87646  21197454.367    21197445.473
        48.500          39.900
 -20333313.918 7 -15572329.43246  21817361.063    21817352.871
        46.600          37.400
  -1000960.701 7  -4375996.62845  24137679.227    24137669.863
        42.200          35.900
 -15693590.181 8 -11978546.46746  21139577.156    21139569.141
        49.100          41.900
  -2668318.913 6  -2142185.88643  23710312.906    23710304.832
        41.300          22.800
     35292.780 5                  24781677.125
        34.600
 23  8  4 15 14 15.0000000  0  9G12G25G05G20G11G31G29G28G18
 -12853002.374 7  -9372911.97445  22430107.727    22430098.656
        46.500          35.300
 -23382415.119 8 -18173779.34647  20505573.102    20505566.199
        49.500          43.100
 -18837153.726 8 -13771920.32846  21608891.672    21608883.422
        48.200          39.400
 -21101257.709 7 -15249209.02446  21197357.055    21197348.102
        47.800          39.400
 -20295981.535 7 -15543239.28146  21824464.570    21824456.789
        45.400          37.600
  -1003944.898 6  -4378321.97745  24137109.195    24137101.590
        40.300          35.100
 -15720556.969 8 -11999559.55947  21134445.625    21134437.375
        49.100          42.200
  -2647357.704 6  -2125852.49243  23714300.156    23714293.488
        39.400          23.200
    -16432.936 5  -1015947.89152  24771834.172    24771828.910
        35.900          16.300
 23  8  4 15 14 30.0000000  0  9G12G25G05G20G11G31G29G28G18
 -12802056.301 7  -9333213.80545  22439802.164    22439793.621
        46.400          35.700
 -23361817.341 8 -18157729.15047  20509492.617    20509485.891
        50.000          43.000
 -18872804.430 7 -13799700.07246  21602107.438    21602099.598
        47.900          39.000
 -21101621.958 8 -15249492.86046  21197287.805    21197278.969
        48.400          39.600
 -20258576.766 7 -15514092.73746  21831583.047    21831574.914
        47.200          38.000
  -1006784.415 6  -4380534.62545  24136569.188    24136561.641
        41.100          35.600
 -15747451.991 8 -12020516.72747  21129328.359    21129319.758
        50.300          42.400
  -2626273.644 6  -2109423.38243  23718313.281    23718305.559
        39.300          22.900
    -68131.069 6  -1056232.12842  24761997.188    24761991.223
        37.600          15.600
 23  8  4 15 14 45.0000000  0  9G12G25G05G20G11G31G29G28G18
 -12751036.073 7  -9293457.83745  22449510.406    22449502.273
        46.500          35.300
 -23341076.864 8 -18141567.76047  20513439.688    20513432.727
        50.100          43.100
 -18908331.166 8 -13827383.21646  21595347.016    21595338.824
        48.500          38.700
 -21101838.637 8 -15249661.70646  21197246.430    21197237.828
        49.200          39.500
 -20221100.251 7 -15484890.28546  21838714.797    21838706.898
        46.100          37.400
  -1009479.827 6  -4382634.97545  24136056.984    24136048.793
        41.100          35.500
 -15774275.429 8 -12041418.12347  21124224.141    21124215.480
        49.800          43.000
  -2605067.273 6  -2092898.98444  23722347.695    23722340.793
        39.200          24.300
   -119801.844 6  -1096495.04042  24752162.672    24752158.527
        36.600          16.300
 23  8  4 15 15  0.0000000  0  9G12G25G05G20G11G31G29G28G18
 -12699941.409 7  -9253643.88145  22459233.727    22459225.711
        45.800          35.100
 -23320193.224 8 -18125294.81147  20517413.414    20517406.805
        49.400          42.400
 -18943733.251 8 -13854969.25446  21588610.477    21588602.051
        49.100          38.900
 -21101907.177 8 -15249715.10646  21197233.289    21197224.219
        48.900          39.700
 -20183551.648 7 -15455631.66146  21845859.383    21845851.484
        46.000          37.300
  -1012030.437 6  -4384622.47245  24135571.492    24135563.945
        40.800          35.800
 -15801026.543 8 -12062263.14347  21119133.164    21119124.621
        50.100          42.600
  -2583738.320 6  -2076279.03944  23726408.047    23726400.207
        40.600          26.500
   -171444.488 5  -1136736.01742  24742337.758    24742331.559
        35.500          14.800
 23  8  4 15 15 15.0000000  0  9G12G25G05G20G11G31G29G28G18
 -12648773.341 7  -9213772.71445  22468970.867    22468963.027
        46.600          34.800
 -23299167.298 8 -18108910.99247  20521414.500    20521407.773
        49.700          42.800
 -18979010.944 8 -13882458.33146  21581897.281    21581889.266
        48.200          39.300
 -21101828.235 8 -15249653.59746  21197248.461    21197239.508
        48.300          39.800
 -20145931.942 7 -15426317.63446  21853017.977    21853010.840
        45.500          36.200
  -1014436.982 6  -4386497.70045  24135114.203    24135105.602
        40.600          35.500
 -15827705.848 8 -12083052.22347  21114056.516    21114047.445
        49.900          42.500
  -2562287.742 6  -2059564.35244  23730489.656    23730482.168
        40.800          25.200
   -223059.638 5  -1176955.60143  24732513.609    24732509.113
        35.200          18.300
 23  8  4 15 15 30.0000000  0  9G12G25G05G20G11G31G29G28G18
 -12597531.939 7  -9173844.43745  22478721.219    22478713.438
        45.000          34.500
 -23277999.011 8 -18092416.23347  20525442.484    20525435.699
        50.000          42.300
 -19014163.811 8 -13909850.15846  21575207.344    21575199.621
        48.400          39.000
 -21101601.616 8 -15249477.01646  21197291.711    21197282.582
        48.200          39.600
 -20108241.156 7 -15396948.21646  21860190.992    21860182.859
        45.700          37.200
  -1016699.206 6  -4388260.49446  24134683.195    24134675.180
        40.400          36.200
 -15854312.940 8 -12103785.02447  21108993.242    21108984.289
        50.300          42.500
  -2540715.638 6  -2042754.94944  23734594.078    23734587.176
        41.100          24.300
   -274646.821 5  -1217153.40643  24722697.813    24722692.551
        35.700          18.600
 23  8  4 15 15 45.0000000  0  9G12G25G05G20G11G31G29G28G18
 -12546216.697 7  -9133858.58745  22488486.953    22488478.586
        46.000          35.000
 -23256687.848 8 -18075810.16147  20529498.000    20529491.684
        49.100          42.300
 -19049190.630 8 -13937143.76446  21568542.734    21568534.543
        48.600          39.700
 -21101226.711 8 -15249184.87946  21197363.305    21197354.293
        49.000          39.800
 -20070478.881 7 -15367523.09746  21867376.781    21867369.176
        45.500          37.600
  -1018816.616 6  -4389910.37146  24134280.156    24134273.254
        41.300          37.300
 -15880847.153 8 -12124461.03847  21103943.977    21103935.258
        49.600          42.400
  -2519021.569 6  -2025850.51743  23738722.086    23738715.535
        39.800          23.800
   -326205.371 6  -1257328.88042  24712886.734    24712881.652
        36.800          17.400
 23  8  4 15 16  0.0000000  0 10G12G25G05G26G20G11G31G29G28G18
 -12494828.921 7  -9093816.23445  22498264.727    22498257.355
        45.800          35.000
 -23235234.851 8 -18059093.55447  20533580.570    20533573.844
        49.800          42.700
 -19084092.404 8 -13964339.92146  21561900.523    21561892.449
        48.200          39.900
    -19688.09315                  24910186.727
        30.700
